{
  "multiPolyLine": 
    [
      [
        [-0.176174, 51.515996],
        [-0.266756, 51.51718],
        [-0.301752, 51.514841],
        [-0.320133, 51.513506],
        [-0.338583, 51.511835],
        [-0.37861, 51.505957],
        [-0.420683, 51.503096],
        [-0.472234, 51.510055],
        [-0.506726, 51.508503],
        [-0.541756, 51.508062],
        [-0.59151, 51.51188],
        [-0.646374, 51.523506],
        [-0.68137, 51.523562],
        [-0.72266, 51.518669],
        [-0.863293, 51.475534],
        [-0.971863, 51.458786]
      ],
      [
        [0.329851, 51.630877],
        [0.299586, 51.613605],
        [0.233129, 51.592766],
        [0.205964, 51.581904],
        [0.183237, 51.574829],
        [0.128958, 51.568039],
        [0.110807, 51.565579],
        [0.0971, 51.564026],
        [0.06968, 51.559118],
        [0.046342, 51.552477],
        [0.024353, 51.549432],
        [0.005815, 51.546081],
        [-0.003397, 51.541895],
        [-0.081426, 51.517991]
      ],
      [
        [0.121087, 51.491284],
        [0.070593, 51.492168],
        [0.027681, 51.509438],
        [-0.020121, 51.506098],
        [-0.059759, 51.519415],
        [-0.082043, 51.517721],
        [-0.104915, 51.520189],
        [-0.129969, 51.515565],
        [-0.177107, 51.516449]
      ],
      [
        [-0.176174, 51.515996],
        [-0.266756, 51.51718],
        [-0.301752, 51.514841],
        [-0.320133, 51.513506],
        [-0.338583, 51.511835],
        [-0.37861, 51.505957],
        [-0.420683, 51.503096],
        [-0.458033, 51.470976],
        [-0.490589, 51.470053]
      ]
    ],

  "stops": [
    {
      "stop_id": "910GRDNGSTN",
      "stop_name": "Reading",
      "stop_lat": 51.458786,
      "stop_lon": -0.971863
    },
    {
      "stop_id": "HUBPAD",
      "stop_name": "Paddington",
      "stop_lat": 51.516981,
      "stop_lon": -0.17616
    },
    {
      "stop_id": "910GABWDXR",
      "stop_name": "Abbey Wood",
      "stop_lat": 51.491284,
      "stop_lon": 0.121087
    },
    {
      "stop_id": "910GLIVST",
      "stop_name": "Liverpool St.",
      "stop_lat": 51.517991,
      "stop_lon": -0.081426
    },
    {
      "stop_id": "910GSHENFLD",
      "stop_name": "Shenfield",
      "stop_lat": 51.630877,
      "stop_lon": 0.329851
    },
    {
      "stop_id": "910GHTRWAPT",
      "stop_name": "Heathrow Central",
      "stop_lat": 51.470976,
      "stop_lon": -0.458033
    },
    {
      "stop_id": "910GHTRWTM5",
      "stop_name": "Heathrow Terminal 5",
      "stop_lat": 51.470053,
      "stop_lon": -0.490589
    }
  ]
}
